{
  "meta": {
    "title": "List of shops",
    "date": "November 2024"
  },
  "shops": [
    {
      "id": 1,
      "name": "NYC Fashion",
      "location": {
        "city": "vlissingen",
        "address": "boulevard bankert 2"
      },
      "phoneNumber": "1234567890",
      "openingHours": {
        "monday": "10:00 AM - 8:00 PM",
        "tuesday": "10:00 AM - 8:00 PM"
      },
      "payingMethods": [
        "Credit Card",
        "Cash"
      ],
      "userID": 8
    },
    {
      "id": 2,
      "name": "marktgoes",
      "location": {
        "city": "goes",
        "address": "grote markt 23"
      },
      "phoneNumber": "2345678901",
      "openingHours": {
        "monday": "11:00 AM - 7:00 PM",
        "tuesday": "11:00 AM - 7:00 PM"
      },
      "payingMethods": [
        "Credit Card",
        "Cash",
        "PayPal"
      ],
      "userID": 9
    },
    {
      "id": 3,
      "name": "haven",
      "location": {
        "city": "zierikzee",
        "address": "havenplein 5"
      },
      "phoneNumber": "3456789012",
      "openingHours": {
        "monday": "9:00 AM - 5:00 PM",
        "tuesday": "9:00 AM - 5:00 PM"
      },
      "payingMethods": [
        "Credit Card",
        "Cash",
        "Apple Pay"
      ],
      "userID": 10
    },
    {
      "id": 4,
      "name": "Miami Trends",
      "location": {
        "city": "terneuzen",
        "address": "nieuwstraat 10"
      },
      "phoneNumber": "4567890123",
      "openingHours": {
        "monday": "10:00 AM - 6:00 PM",
        "tuesday": "10:00 AM - 6:00 PM",
        "wednesday": "6:00 AM - 12:00 PM"
      },
      "payingMethods": [
        "Credit Card",
        "Cash",
        "Google Pay",
        "Crypto"
      ],
      "userID": 11
    },
    {
      "id": 5,
      "name": "update example1",
      "location": {
        "city": "arnemuiden",
        "address": "oranje nassaustraat 13"
      },
      "phoneNumber": "3216549870",
      "openingHours": {
        "monday": "9:00-16:00",
        "tuesday": "7:30-15:00",
        "wednesday": "10:00-17:00",
        "thursday": "24/7",
        "friday": "closed",
        "saturday": "closed",
        "sunday": "closed"
      },
      "payingMethods": [
        "Cash",
        "Card",
        "something else",
        "another thing"
      ],
      "image": "uploads/1734267851429"
    }
  ]
}